{
  "hospitals": [
    {"name": "مدينة الأمير سلطان الطبية العسكرية", "location": "السليمانية", "city": "الرياض", "type": "عسكري", "ownership": "حكومي", "website": "psmmc.med.sa"},
    {"name": "مدينة الملك سعود الطبية", "location": "عليشة", "city": "الرياض", "type": "مدينة", "website": "ksmc.med.sa"},
    {"name": "مدينة الملك عبد العزيز الطبية للحرس الوطني", "location": "الرياض", "city": "الرياض", "type": "عسكري", "ownership": "حكومي", "website": "ngha.med.sa"},
    {"name": "مستشفى عبيد التخصصي", "location": "الملز", "city": "الرياض", "type": "تخصصي"},
    {"name": "مستشفى الإمام عبد الرحمن الفيصل", "location": "عكاظ", "city": "الرياض"},
    {"name": "مستشفى الدكتور سليمان فقيه", "location": "الياسمين", "city": "الرياض"},
    {"name": "مستشفى الحمادي - العليا", "location": "العليا", "city": "الرياض", "website": "alhammadi.med.sa"},
    {"name": "مستشفى الحمادي - النزهة", "location": "النزهة", "city": "الرياض"},
    {"name": "مستشفى الحمادي - السويدي", "location": "السويدي", "city": "الرياض"},
    {"name": "مستشفى المشاري", "location": "العليا", "city": "الرياض"},
    {"name": "مستشفى المواساة", "location": "غرناطة", "city": "الرياض", "website": "mouwasat.com"},
    {"name": "مستشفى اليمامة", "location": "المنار", "city": "الرياض"},
    {"name": "مستشفى استر سند", "location": "الحمراء", "city": "الرياض"},
    {"name": "مستشفى الدكتور محمد الفقيه", "location": "الخليج", "city": "الرياض"},
    {"name": "مستشفى دله - النخيل", "location": "النخيل", "city": "الرياض", "website": "dallah-hospital.com"},
    {"name": "مستشفى دله - نمار", "location": "نمار", "city": "الرياض", "website": "dallah-hospital.com"},
    {"name": "مستشفى الرياض", "location": "المغرزات", "city": "الرياض"},
    {"name": "مستشفى الملك عبد الله الجامعي", "location": "جامعة الأميرة نورة", "city": "الرياض", "type": "جامعي"},
    {"name": "مستشفى الدكتور سليمان الحبيب - العليا", "location": "العليا", "city": "الرياض"},
    {"name": "مستشفى الدكتور سليمان الحبيب - الريان", "location": "الريان", "city": "الرياض"},
    {"name": "مستشفى الدكتور سليمان الحبيب - السويدي", "location": "السويدي", "city": "الرياض"},
    {"name": "مستشفى الجزيرة", "location": "النسيم الغربي", "city": "الرياض"},
    {"name": "مستشفى الهلال الأخضر", "location": "المؤتمرات", "city": "الرياض"},
    {"name": "مستشفى علي بن علي", "location": "العزيزية", "city": "الرياض"},
    {"name": "مستشفى انتر هلث", "city": "الرياض"},
    {"name": "مستشفيات مديدة", "city": "الرياض"},
    {"name": "مستشفى اس ام سي - طريق الملك فهد", "location": "طريق الملك فهد", "city": "الرياض", "ownership": "خاص", "website": "smc.com.sa"},
    {"name": "مستشفى اس ام سي - طريق الملك عبد الله", "location": "طريق الملك عبد الله", "city": "الرياض", "ownership": "خاص", "website": "smc.com.sa"},
    {"name": "المستشفى السعودي الألماني - الرياض", "location": "الصحافة", "city": "الرياض", "ownership": "خاص", "website": "saudigermanhealth.com"},
    {"name": "مستشفى عناية العائلة", "location": "الندوة", "city": "الرياض"},
    {"name": "مستشفى الملك سلمان", "location": "العريجاء الوسطى", "city": "الرياض"},
    {"name": "مدينة الملك فهد الطبية", "location": "السليمانية", "city": "الرياض", "type": "مدينة", "website": "kfmc.med.sa"},
    {"name": "مستشفى الملك فيصل التخصصي", "location": "المعذر", "city": "الرياض", "type": "تخصصي", "website": "kfshrc.edu.sa"},
    {"name": "مستشفى الملك خالد الجامعي", "location": "جامعة الملك سعود", "city": "الرياض", "type": "جامعي"},
    {"name": "مستشفى المملكة", "location": "الربيع", "city": "الرياض", "website": "khccgroup.com"},
    {"name": "مستشفى رعاية الطبية - الروابي", "location": "الروابي", "city": "الرياض", "website": "care.med.sa"},
    {"name": "مستشفى رعاية الطبية - الملز", "location": "الملز", "city": "الرياض"},
    {"name": "مستشفى الأمير محمد بن عبد العزيز", "location": "الروابي", "city": "الرياض"},
    {"name": "مستشفى قوى الأمن", "location": "الضباط", "city": "الرياض"},
    {"name": "مستشفى الحياة الوطني", "location": "الربوة", "city": "الرياض"},
    {"name": "مستشفى الإيمان العام", "location": "المنصورة", "city": "الرياض"},
    {"name": "مستشفى المانع - الرياض", "location": "الفلاح", "city": "الرياض"},
    {"name": "مستشفى نبع الصحة", "location": "المونسية", "city": "الرياض"},
    {"name": "مستشفى الملك خالد التخصصي للعيون", "location": "أم الحمام الغربي", "city": "الرياض", "type": "تخصصي", "website": "kkesh.med.sa"},
    {"name": "مستشفى الدوسري", "city": "الخبر", "region": "الشرقية"},
    {"name": "مستشفى الخبر", "city": "الخبر", "region": "الشرقية"},
    {"name": "مستشفى المانع - الدمام", "city": "الدمام", "region": "الشرقية", "website": "almanahospital.com.sa"},
    {"name": "مستشفى المانع - الجبيل", "city": "الجبيل", "region": "الشرقية"},
    {"name": "مستشفى المانع - الهفوف", "city": "الهفوف", "region": "الشرقية"},
    {"name": "مستشفى المانع - الخبر", "city": "الخبر", "region": "الشرقية"},
    {"name": "مستشفى المواساة - الدمام", "city": "الدمام", "region": "الشرقية"},
    {"name": "مستشفى المواساة - الجبيل", "city": "الجبيل", "region": "الشرقية"},
    {"name": "مستشفى المواساة - القطيف", "city": "القطيف", "region": "الشرقية"},
    {"name": "مستشفى المواساة - الخبر", "city": "الخبر", "region": "الشرقية"},
    {"name": "مستشفى الروضة", "city": "الدمام", "region": "الشرقية"},
    {"name": "مستشفى اليوسف", "city": "الخبر", "region": "الشرقية"},
    {"name": "مستشفى نبع الصحة - القطيف", "city": "القطيف", "region": "الشرقية"},
    {"name": "المستشفى السعودي الألماني - الدمام", "location": "حي الفيصلية", "city": "الدمام", "region": "الشرقية", "ownership": "خاص", "website": "saudigermanhealth.com"},
    {"name": "مستشفى جاما", "city": "الظهران", "region": "الشرقية", "website": "gamahospital.com"},
    {"name": "مستشفى الدمام المركزي", "city": "الدمام", "region": "الشرقية", "type": "مركزي"},
    {"name": "مستشفى الإمام عبد الرحمن الفيصل - الدمام", "city": "الدمام", "region": "الشرقية"},
    {"name": "مستشفى العيون التخصصي", "city": "الظهران", "region": "الشرقية", "type": "تخصصي"},
    {"name": "مستشفى دار السلامة", "city": "الخبر", "region": "الشرقية"},
    {"name": "مستشفى الرعاية - برو كير", "city": "الخبر", "region": "الشرقية"},
    {"name": "مستشفى الموسى", "city": "الخبر", "region": "الشرقية"},
    {"name": "مستشفى الأمن العام", "city": "الدمام", "region": "الشرقية"},
    {"name": "مجمع الملك فهد الطبي العسكري", "city": "الظهران", "region": "الشرقية", "type": "عسكري", "ownership": "حكومي", "website": "kfmmc.med.sa"},
    {"name": "مركز الأمير سلطان لأمراض القلب", "city": "الهفوف", "region": "الشرقية", "website": "pscch.med.sa"},
    {"name": "مستشفى الولادة والأطفال - الدمام", "city": "الدمام", "region": "الشرقية"},
    {"name": "مستشفى حسين العلي", "city": "الهفوف", "region": "الشرقية"},
    {"name": "مستشفى أرامكو السعودية - الظهران", "city": "الظهران", "region": "الشرقية"},
    {"name": "مستشفى الدكتور سليمان الحبيب - الخبر", "city": "الخبر", "region": "الشرقية"},
    {"name": "مستشفى دله - الخبر", "city": "الخبر", "region": "الشرقية"},
    {"name": "مستشفى القطيف المركزي", "city": "القطيف", "region": "الشرقية", "type": "مركزي"},
    {"name": "مستشفى الهيئة الملكية", "city": "الجبيل", "region": "الشرقية", "website": "rch.med.sa"},
    {"name": "مستشفى الملك فهد التخصصي - الدمام", "city": "الدمام", "region": "الشرقية", "type": "تخصصي"},
    {"name": "مستشفى الملك فهد الجامعي", "city": "الخبر", "region": "الشرقية", "type": "جامعي"},
    {"name": "مدينة الملك عبد الله الطبية", "city": "مكة المكرمة", "region": "مكة المكرمة", "type": "مدينة", "website": "kamc.med.sa"},
    {"name": "مدينة الملك عبد العزيز الطبية - جدة", "city": "جدة", "region": "مكة المكرمة", "type": "مدينة", "website": "ngha.med.sa"},
    {"name": "مستشفى الأطباء المتحدون", "city": "جدة", "region": "مكة المكرمة", "website": "udh.sa"},
    {"name": "مستشفى حسان غزاوي", "city": "جدة", "region": "مكة المكرمة", "website": "abeermedicalgroup.com"},
    {"name": "مستشفى الأمل - جدة", "city": "جدة", "region": "مكة المكرمة"},
    {"name": "مستشفى الحمراء - جدة", "city": "جدة", "region": "مكة المكرمة"},
    {"name": "مستشفى لندن", "city": "جدة", "region": "مكة المكرمة"},
    {"name": "مستشفى مغربي", "city": "جدة", "region": "مكة المكرمة"},
    {"name": "مستشفى السلامة", "city": "جدة", "region": "مكة المكرمة"},
    {"name": "مستشفى الثغر", "city": "جدة", "region": "مكة المكرمة"},
    {"name": "مستشفى بقشان", "city": "جدة", "region": "مكة المكرمة"},
    {"name": "مستشفى الدكتور سليمان الحبيب - جدة", "city": "جدة", "region": "مكة المكرمة"},
    {"name": "مستشفى جدة الأهلي", "city": "جدة", "region": "مكة المكرمة"},
    {"name": "مستشفى الدكتور بخش", "city": "جدة", "region": "مكة المكرمة"},
    {"name": "مستشفى شرق جدة العام", "city": "جدة", "region": "مكة المكرمة"},
    {"name": "مستشفى الدكتور سمير عباس", "city": "جدة", "region": "مكة المكرمة"},
    {"name": "مجمع الملك عبد الله الطبي - جدة", "city": "جدة", "region": "مكة المكرمة", "type": "مجمع"},
    {"name": "مستشفى الدكتور سليمان فقيه - جدة", "city": "جدة", "region": "مكة المكرمة"},
    {"name": "المركز الطبي الدولي", "city": "جدة", "region": "مكة المكرمة"},
    {"name": "مستشفى العيون - جدة", "city": "جدة", "region": "مكة المكرمة"},
    {"name": "مستشفى جدة الوطني", "city": "جدة", "region": "مكة المكرمة"},
    {"name": "مستشفى أندلسية", "city": "جدة", "region": "مكة المكرمة"},
    {"name": "مستشفى جامعة الملك عبد العزيز", "city": "جدة", "region": "مكة المكرمة"},
    {"name": "مستشفى الملك فهد - جدة", "city": "جدة", "region": "مكة المكرمة"},
    {"name": "مستشفى المواساة - جدة", "city": "جدة", "region": "مكة المكرمة", "ownership": "خاص"}
  ]
}
